~Version ---------------------------------------------------
VERS.        2.0 : CWLS log ASCII Standard -VERSION 2.0
WRAP.         NO : One Line per Depth Step
CREA. 02-08-2006 : LAS File Creation Date (MM-DD-YYYY)
~Well ------------------------------------------------------
STRT.F          10180.0 : START DEPTH
STOP.F          10414.0 : STOP DEPTH
STEP.F              1.0 : STEP
NULL.           -999.25 : NULL VALUE
COMP.        Cramer Oil : COMPANY
WELL.      #36-16 State : WELL
LOC .  SE SE 36-47N-71W : LOCATION
CNTY.          Campbell : COUNTY
FLD .                   : FIELD
STAT.           Wyoming : STATE
CTRY.            U.S.A. : COUNTRY
DATE.             11/91 : COMPLETION DATE (MM/YY)
API . 49-005-30258-0000 : API NUMBER
SRVC.                   : SERVICE COMPANY
~Curve Information -----------------------------------------
DEPT   .F     : 1 DEPTH
DT     .US/F  : 2 SONIC DELTA-T
RESD   .OHMM  : 3 DEEP RESISTIVITY
GR     .MV    : 4 SP CURVE
V      .ft/s  : 5 VEL FROM DT
AI     .ohms  : 6 IMPEDANCE
RICK_QC.WAV   : 7 RICKER WAVELET
SYNT   .SEIS  : 8 SYNTHETIC TRACE
~Params ----------------------------------------------------
BHT .DEGF 194.0 : BOTTOM HOLE TEMPERATURE
RMF .OHMM 0.441 : MUD FILTRATE RESISTIVITY
RMFT.DEGF  68.0 : MEASURE TEMPERATURE OF RMF
EKB .F   4642.0 : ELEVATION KELLY BUSHING
SECT.        36 : SECTION
TOWN.       47N : TOWNSHIP
RANG.       71W : RANGE
~Other -----------------------------------------------------
~ASCII -----------------------------------------------------
# ...
 10358.00000   73.80000    1.38000   17.00000 7124.92759 7124.92759   -0.00000 -580.58970
 10359.00000   71.60000    1.59000   17.00000 6911.86408 6911.86408   -0.00000 -173.68041
 10360.00000   69.30000    2.00000   18.00000 6689.18919 6689.18919   -0.00000  208.96773
 10361.00000   67.10000    2.90000   30.00000 6476.20886 6476.20886   -0.00000  497.13316
 10362.00000   65.00000    3.30000   36.00000 6272.92029 6272.92029   -0.00000  648.97845
 10363.00000   64.00000    3.80000   34.00000 6175.81781 6175.81781   -0.00000  652.83730
 10364.00000   63.80000    4.50000   33.00000 6155.92435 6155.92435   -0.00000  524.73227
 10365.00000   63.90000    5.00000   36.00000 6164.97829 6164.97829   -0.00000  302.91786
 10366.00000   65.10000    5.30000   37.00000 6280.14663 6280.14663   -0.00000   40.72030
 10367.00000   65.50000    5.50000   30.00000 6318.12482 6318.12482   -0.00000 -202.51588
 10368.00000   64.30000    5.60000   24.00000 6201.77469 6201.77469   -0.00000 -372.56803
 10369.00000   64.40000    5.60000   25.00000 6210.82072 6210.82072   -0.00000 -432.06951
 10370.00000   66.00000    5.70000   29.00000 6364.51302 6364.51302   -0.00000 -364.70337
 10371.00000   66.00000    5.70000   32.00000 6363.89933 6363.89933   -0.00000 -191.64439
 10372.00000   64.60000    5.70000   33.00000 6228.30698 6228.30698   -0.00000   44.24724
 10373.00000   64.90000    5.70000   32.00000 6256.62778 6256.62778   -0.00000  298.71861
 10374.00000   65.00000    5.80000   32.00000 6265.66416 6265.66416   -0.00000  532.99735
 10375.00000   62.60000    6.30000   27.00000 6033.73494 6033.73494   -0.00000  717.83694
 10376.00000   60.40000    7.20000   22.00000 5821.12567 5821.12567   -0.00000  830.39401
 10377.00000   59.30000    8.10000   19.00000 5714.56105 5714.56105   -0.00000  848.49586
 10378.00000   59.30000    8.30000   21.00000 5714.01041 5714.01041   -0.00000  748.88896
 10379.00000   62.60000    8.30000   27.00000 6031.40958 6031.40958   -0.00000  513.72065
 10380.00000   63.60000    8.10000   27.00000 6127.16763 6127.16763   -0.00000  143.99183
 10381.00000   61.50000    8.00000   27.00000 5924.28475 5924.28475   -0.00000 -327.64672
 10382.00000   61.70000    8.80000   27.00000 5942.97823 5942.97823   -0.00000 -820.36927
 10383.00000   62.30000   10.00000   30.00000 6000.19262 6000.19262   -0.00000 -1229.94425
 10384.00000   61.90000   10.10000   34.00000 5961.09399 5961.09399   -0.00000 -1460.87438
 10385.00000   62.30000    9.20000   38.00000 5999.03707 5999.03707   -0.00000 -1452.64671
 10386.00000   63.20000    8.60000   38.00000 6085.11458 6085.11458   -0.00000 -1201.63879
 10387.00000   63.50000    8.50000   40.00000 6113.41099 6113.41099   -0.00000 -765.27564
 10388.00000   63.50000    9.40000   38.00000 6112.82249 6112.82249   -0.00000 -246.06134
 10389.00000   62.70000   11.40000   33.00000 6035.22957 6035.22957   -0.00000  238.94622
 10390.00000   60.00000   14.80000   27.00000 5774.78345 5774.78345   -0.00000  592.06352
 10391.00000   57.00000   19.00000   27.00000 5485.51631 5485.51631   -0.00000  760.29438
 10392.00000   54.00000   40.00000   27.00000 5196.30485 5196.30485   -0.00000  741.09346
 10393.00000   49.10000   89.00000   23.00000 4724.33369 4724.33369   -0.00000  581.41785
 10394.00000   47.20000  134.00000   22.00000 4541.08139 4541.08139   -0.00000  361.25174
 10395.00000   46.70000  220.00000   25.00000 4492.54449 4492.54449   -0.00000  146.85508
 10396.00000   47.10000  193.00000   31.00000 4530.58869 4530.58869   -0.00000  -14.02946
 10397.00000   47.60000  122.00000   33.00000 4578.24372 4578.24372   -0.00000  -97.37781
 10398.00000   48.80000   96.00000   35.00000 4693.21023 4693.21023   -0.00000 -100.73726
 10399.00000   49.80000   81.00000    5.00000 4788.92201 4788.92201   -0.00000  -37.80762
 10400.00000   50.80000   75.00000    0.00000 4884.61538 4884.61538   -0.00000   67.12835
 10401.00000   51.10000   75.00000    0.00000 4912.98914 4912.98914   -0.00000  184.12019
 10402.00000   50.20000   97.00000    0.00000 4825.99500 4825.99500   -0.00000  282.64034
 10403.00000   49.00000  167.00000    0.00000 4710.17976 4710.17976   -0.00000  336.87338
 10404.00000   48.40000  315.00000    0.00000 4652.05690 4652.05690   -0.00000  329.86895
 10405.00000   50.60000 1693.00000    0.00000 4863.04661 4863.04661   -0.00000  268.58657
 10406.00000   50.70000 1874.00000    0.00000 4872.18912 4872.18912   -0.00000  170.20912
 10407.00000   50.40000 1874.00000    0.00000 4842.89421 4842.89421   -0.00000   59.15099
 10408.00000   49.90000 1874.00000    0.00000 4794.38893 4794.38893   -0.00000  -40.74812
 10409.00000   49.70000  591.00000    0.00000 4774.71419 4774.71419   -0.00000 -112.75137
 10410.00000   49.60000  208.00000    0.00000 4764.64938 4764.64938   -0.00000 -150.31590
 10411.00000   51.50000  134.00000    0.00000 4946.69100 4946.69100   -0.00000 -156.34084
 10412.00000   52.50000  116.00000    0.00000 5042.25893 5042.25893   -0.00000 -139.75686
 10413.00000   53.20000  113.00000    0.00000 5108.99837 5108.99837   -0.00000 -111.34673
 10414.00000   54.10000  156.00000    0.00000 5194.92990 5194.92990   -0.00000  -80.41406
