~Version ---------------------------------------------------
VERS.        2.0 : CWLS log ASCII Standard -VERSION 2.0
WRAP.         NO : One Line per Depth Step
CREA. 02-08-2006 : LAS File Creation Date (MM-DD-YYYY)
~Well ------------------------------------------------------
STRT.F          10180.0 : START DEPTH
STOP.F          10414.0 : STOP DEPTH
STEP.F              1.0 : STEP
NULL.           -999.25 : NULL VALUE
COMP.        Cramer Oil : COMPANY
WELL.      #36-16 State : WELL
LOC .  SE SE 36-47N-71W : LOCATION
CNTY.          Campbell : COUNTY
FLD .                   : FIELD
STAT.           Wyoming : STATE
CTRY.            U.S.A. : COUNTRY
DATE.             11/91 : COMPLETION DATE (MM/YY)
API . 49-005-30258-0000 : API NUMBER
SRVC.                   : SERVICE COMPANY
~Curve Information -----------------------------------------
DEPT   .F     : 1 DEPTH
DT     .US/F  : 2 SONIC DELTA-T
RESD   .OHMM  : 3 DEEP RESISTIVITY
GR     .MV    : 4 SP CURVE
V      .ft/s  : 5 VEL FROM DT
AI     .ohms  : 6 IMPEDANCE
RICK_QC.WAV   : 7 RICKER WAVELET
SYNT   .SEIS  : 8 SYNTHETIC TRACE
~Params ----------------------------------------------------
BHT .DEGF 194.0 : BOTTOM HOLE TEMPERATURE
RMF .OHMM 0.441 : MUD FILTRATE RESISTIVITY
RMFT.DEGF  68.0 : MEASURE TEMPERATURE OF RMF
EKB .F   4642.0 : ELEVATION KELLY BUSHING
SECT.        36 : SECTION
TOWN.       47N : TOWNSHIP
RANG.       71W : RANGE
~Other -----------------------------------------------------
~ASCII -----------------------------------------------------
# ...
 10269.00000   56.60000   35.00000   96.00000 5511.73435 5511.73435   -0.00000 -484.12415
 10270.00000   56.80000   30.00000  103.00000 5530.67186 5530.67186   -0.00000 -226.60422
 10271.00000   59.50000   27.00000  113.00000 5793.00944 5793.00944   -0.00000   86.88464
 10272.00000   61.30000   23.00000  122.00000 5967.67913 5967.67913   -0.00000  401.37015
 10273.00000   61.90000   19.90000  122.00000 6025.50375 6025.50375   -0.00000  662.12482
 10274.00000   61.90000   18.90000  117.00000 6024.91727 6024.91727   -0.00000  824.92230
 10275.00000   62.10000   18.50000  118.00000 6043.79562 6043.79562   -0.00001  863.88389
 10276.00000   62.50000   19.40000  120.00000 6082.13313 6082.13313   -0.00004  774.35173
 10277.00000   62.50000   20.00000  119.00000 6081.54131 6081.54131   -0.00012  571.39133
 10278.00000   62.50000   20.00000  122.00000 6080.94960 6080.94960   -0.00034  286.06064
 10279.00000   62.40000   22.00000  130.00000 6070.62944 6070.62944   -0.00090  -38.44207
 10280.00000   62.00000   24.00000  124.00000 6031.12840 6031.12840   -0.00224 -350.26473
 10281.00000   60.70000   26.00000   87.00000 5904.09493 5904.09493   -0.00541 -586.93242
 10282.00000   57.50000   30.00000   53.00000 5592.29722 5592.29722   -0.01221 -696.07204
 10283.00000   56.00000   33.00000   46.00000 5445.88155 5445.88155   -0.02544 -648.28416
 10284.00000   56.00000   34.00000   58.00000 5445.35200 5445.35200   -0.04909 -442.89633
 10285.00000   57.80000   30.00000   83.00000 5619.83471 5619.83471   -0.08770 -115.36468
 10286.00000   60.00000   28.00000  100.00000 5833.17130 5833.17130   -0.14493  266.64522
 10287.00000   60.30000   26.00000  101.00000 5861.76728 5861.76728   -0.22080  616.98406
 10288.00000   60.20000   26.00000   92.00000 5851.47745 5851.47745   -0.30828  850.84599
 10289.00000   59.90000   29.00000   85.00000 5821.75138 5821.75138   -0.39039  905.20868
 10290.00000   60.40000   34.00000   99.00000 5869.77648 5869.77648   -0.43997  754.95794
 10291.00000   60.90000   35.00000  105.00000 5917.79225 5917.79225   -0.42410  421.37317
 10292.00000   61.40000   39.00000  107.00000 5965.79868 5965.79868   -0.30953  -29.76746
 10293.00000   61.40000   44.00000   97.00000 5965.21908 5965.21908   -0.08833 -486.95583
 10294.00000   56.10000   66.00000   62.00000 5449.77657 5449.77657    0.21180 -840.99269
 10295.00000   51.20000  122.00000   46.00000 4973.28800 4973.28800    0.53556 -1013.38631
 10296.00000   48.40000  248.00000   45.00000 4700.85470 4700.85470    0.80935 -977.49485
 10297.00000   48.50000 1724.00000   33.00000 4710.10974 4710.10974    0.96374 -767.90318
 10298.00000   49.80000 2036.00000   23.00000 4835.89046 4835.89046    0.95723 -469.01199
 10299.00000   49.80000 2036.00000   20.00000 4835.42091 4835.42091    0.79138 -186.00203
 10300.00000   50.00000 2055.00000   15.00000 4854.36893 4854.36893    0.51025   -9.39144
 10301.00000   50.90000 2093.00000   11.00000 4941.26784 4941.26784    0.18458   12.78229
 10302.00000   50.50000 2113.00000   13.00000 4901.96078 4901.96078   -0.11238 -114.69912
 10303.00000   47.90000 2113.00000   16.00000 4649.13132 4649.13132   -0.32343 -343.26324
 10304.00000   46.30000 2113.00000   21.00000 4493.40062 4493.40062   -0.42605 -591.24354
 10305.00000   46.10000 2093.00000   30.00000 4473.55653 4473.55653   -0.43649 -778.63854
 10306.00000   46.40000 1631.00000   38.00000 4502.23171 4502.23171   -0.38389 -842.80915
 10307.00000   46.40000  751.00000   39.00000 4501.79490 4501.79490   -0.30087 -740.88031
 10308.00000   45.80000  250.00000   35.00000 4443.15095 4443.15095   -0.21396 -454.45092
 10309.00000   45.90000  216.00000   30.00000 4452.42022 4452.42022   -0.13942    4.18841
 10310.00000   46.50000  199.00000   25.00000 4510.18429 4510.18429   -0.08370  585.68531
 10311.00000   46.70000  176.00000   24.00000 4529.14363 4529.14363   -0.04643 1202.81724
 10312.00000   47.30000  130.00000   27.00000 4586.88906 4586.88906   -0.02381 1741.42351
 10313.00000   51.90000   95.00000   21.00000 5032.48327 5032.48327   -0.01128 2084.73156
 10314.00000   55.70000   69.00000   17.00000 5400.42660 5400.42660   -0.00499 2138.61843
 10315.00000   61.20000   47.00000   16.00000 5933.10713 5933.10713   -0.00213 1867.38893
 10316.00000   66.50000   31.00000   16.00000 6446.29701 6446.29701   -0.00085 1340.28181
 10317.00000   68.90000   21.00000   18.00000 6678.29795 6678.29795   -0.00032  664.77420
 10318.00000   69.60000   17.50000   19.00000 6745.49331 6745.49331   -0.00011  -29.49085
 10319.00000   69.60000   16.10000   19.00000 6744.83962 6744.83962   -0.00004 -626.66570
 10320.00000   69.10000   16.10000   16.00000 6695.73643 6695.73643   -0.00001 -1051.64988
 10321.00000   68.00000   16.10000   18.00000 6588.50887 6588.50887   -0.00000 -1280.01957
 10322.00000   66.90000   17.50000   19.00000 6481.30207 6481.30207   -0.00000 -1330.61116
 10323.00000   66.70000   18.00000   17.00000 6461.30001 6461.30001   -0.00000 -1247.00128
 10324.00000   66.60000   18.30000   17.00000 6450.98799 6450.98799   -0.00000 -1076.94070
 10325.00000   66.00000   18.30000   17.00000 6392.25182 6392.25182   -0.00000 -857.19489
 10326.00000   65.00000   18.30000   17.00000 6294.78985 6294.78985   -0.00000 -607.96822
 10327.00000   64.40000   18.30000   17.00000 6236.08018 6236.08018   -0.00000 -339.76366
 10328.00000   64.00000   18.20000   18.00000 6196.74671 6196.74671   -0.00000  -58.99741
 10329.00000   64.60000   17.40000   22.00000 6254.23565 6254.23565   -0.00000  220.93116
 10330.00000   64.70000   16.30000   22.00000 6263.31075 6263.31075   -0.00000  476.50770
 10331.00000   64.40000   15.40000   21.00000 6233.66567 6233.66567   -0.00000  677.40139
 10332.00000   64.40000   14.00000   17.00000 6233.06233 6233.06233   -0.00000  794.78854
 10333.00000   65.50000   12.70000   14.00000 6338.91416 6338.91416   -0.00000  811.01950
 10334.00000   67.40000   11.00000   13.00000 6522.15986 6522.15986   -0.00000  726.25343
 10335.00000   69.30000    9.00000   18.00000 6705.37010 6705.37010   -0.00000  559.06509
 10336.00000   70.90000    7.50000   19.00000 6859.52012 6859.52012   -0.00000  340.92575
 10337.00000   72.40000    6.70000   20.00000 7003.96633 7003.96633   -0.00000  108.60732
 10338.00000   73.30000    6.10000   20.00000 7090.34630 7090.34630   -0.00000 -104.20527
 10339.00000   73.70000    5.70000   18.00000 7128.34897 7128.34897   -0.00000 -275.55318
 10340.00000   73.80000    5.60000   17.00000 7137.33075 7137.33075   -0.00000 -390.68660
 10341.00000   73.40000    5.30000   17.00000 7097.95958 7097.95958   -0.00000 -439.64349
 10342.00000   73.40000    5.00000   16.00000 7097.27325 7097.27325   -0.00000 -415.96490
 10343.00000   74.40000    4.50000   14.00000 7193.27081 7193.27081   -0.00000 -317.72993
 10344.00000   75.40000    4.00000   15.00000 7289.24981 7289.24981   -0.00000 -150.46250
 10345.00000   75.20000    3.50000   19.00000 7269.21218 7269.21218   -0.00000   69.44866
 10346.00000   72.60000    3.20000   24.00000 7017.20472 7017.20472   -0.00000  312.34734
 10347.00000   71.60000    2.80000   24.00000 6919.88016 6919.88016   -0.00000  535.47892
 10348.00000   72.00000    2.50000   19.00000 6957.86625 6957.86625   -0.00000  679.42757
 10349.00000   74.30000    2.20000   22.00000 7179.43763 7179.43763   -0.00000  695.96347
 10350.00000   74.60000    1.94000   24.00000 7207.72947 7207.72947   -0.00000  557.31203
 10351.00000   74.70000    1.72000   22.00000 7216.69404 7216.69404   -0.00000  268.51186
 10352.00000   72.30000    1.59000   20.00000 6984.15765 6984.15765   -0.00000 -125.31113
 10353.00000   71.90000    1.50000   17.00000 6944.84690 6944.84690   -0.00000 -545.21943
 10354.00000   75.50000    1.43000   16.00000 7291.86788 7291.86788   -0.00000 -897.58774
 10355.00000   77.60000    1.37000   16.00000 7493.96427 7493.96427   -0.00000 -1100.29020
 10356.00000   78.30000    1.34000   16.00000 7560.83430 7560.83430   -0.00000 -1106.53354
 10357.00000   75.80000    1.34000   16.00000 7318.72164 7318.72164   -0.00000 -917.62165
