~Version ---------------------------------------------------
VERS.        2.0 : CWLS log ASCII Standard -VERSION 2.0
WRAP.         NO : One Line per Depth Step
CREA. 02-08-2006 : LAS File Creation Date (MM-DD-YYYY)
~Well ------------------------------------------------------
STRT.F          10180.0 : START DEPTH
STOP.F          10414.0 : STOP DEPTH
STEP.F              1.0 : STEP
NULL.           -999.25 : NULL VALUE
COMP.        Cramer Oil : COMPANY
WELL.      #36-16 State : WELL
LOC .  SE SE 36-47N-71W : LOCATION
CNTY.          Campbell : COUNTY
FLD .                   : FIELD
STAT.           Wyoming : STATE
CTRY.            U.S.A. : COUNTRY
DATE.             11/91 : COMPLETION DATE (MM/YY)
API . 49-005-30258-0000 : API NUMBER
SRVC.                   : SERVICE COMPANY
~Curve Information -----------------------------------------
DEPT   .F     : 1 DEPTH
DT     .US/F  : 2 SONIC DELTA-T
RESD   .OHMM  : 3 DEEP RESISTIVITY
GR     .MV    : 4 SP CURVE
V      .ft/s  : 5 VEL FROM DT
AI     .ohms  : 6 IMPEDANCE
RICK_QC.WAV   : 7 RICKER WAVELET
SYNT   .SEIS  : 8 SYNTHETIC TRACE
~Params ----------------------------------------------------
BHT .DEGF 194.0 : BOTTOM HOLE TEMPERATURE
RMF .OHMM 0.441 : MUD FILTRATE RESISTIVITY
RMFT.DEGF  68.0 : MEASURE TEMPERATURE OF RMF
EKB .F   4642.0 : ELEVATION KELLY BUSHING
SECT.        36 : SECTION
TOWN.       47N : TOWNSHIP
RANG.       71W : RANGE
~Other -----------------------------------------------------
~ASCII -----------------------------------------------------
 10180.00000   59.90000   22.00000  116.00000 5884.08644 5884.08644   -0.00000  -25.15963
 10181.00000   59.90000   21.00000  114.00000 5883.50850 5883.50850   -0.00000  -40.26827
 10182.00000   60.50000   19.70000  127.00000 5941.85818 5941.85818   -0.00000  -57.22694
 10183.00000   63.50000   18.90000  150.00000 6235.88333 6235.88333   -0.00000  -69.87736
 10184.00000   64.50000   18.20000  155.00000 6333.46426 6333.46426   -0.00000  -67.05470
 10185.00000   64.60000   18.00000  140.00000 6342.66078 6342.66078   -0.00000  -33.20216
 10186.00000   61.50000   18.00000  121.00000 6037.69880 6037.69880   -0.00000   48.07656
 10187.00000   59.20000   21.00000  106.00000 5811.32816 5811.32816   -0.00000  187.11453
 10188.00000   55.90000   29.00000   62.00000 5486.84727 5486.84727   -0.00000  379.23633
 10189.00000   52.10000   53.00000   25.00000 5113.35754 5113.35754   -0.00000  597.16572
 10190.00000   49.10000  390.00000    9.00000 4818.44946 4818.44946   -0.00000  789.46976
 10191.00000   47.80000 1501.00000   11.00000 4690.41311 4690.41311   -0.00000  888.92416
 10192.00000   47.20000 2093.00000   11.00000 4631.08320 4631.08320   -0.00000  818.58848
 10193.00000   47.20000 1677.00000   10.00000 4630.62886 4630.62886   -0.00000  553.78728
 10194.00000   48.50000 1077.00000    9.00000 4757.70061 4757.70061   -0.00000  119.08336
 10195.00000   49.60000  765.00000    8.00000 4865.12997 4865.12997   -0.00000 -409.42278
 10196.00000   48.30000  564.00000    8.00000 4737.15182 4737.15182   -0.00000 -919.84049
 10197.00000   46.90000  554.00000    8.00000 4599.39198 4599.39198   -0.00000 -1297.15506
 10198.00000   46.60000  487.00000   10.00000 4569.52344 4569.52344   -0.00000 -1459.45805
 10199.00000   46.80000  159.00000   15.00000 4588.68517 4588.68517   -0.00000 -1383.70551
 10200.00000   46.70000   74.00000   16.00000 4578.43137 4578.43137   -0.00000 -1110.69509
 10201.00000   47.80000   57.00000   14.00000 4685.81512 4685.81512   -0.00000 -727.41204
 10202.00000   51.20000   50.00000   14.00000 5018.62380 5018.62380   -0.00000 -334.33614
 10203.00000   51.60000   48.00000   18.00000 5057.33608 5057.33608   -0.00000  -17.32750
 10204.00000   51.10000   48.00000   23.00000 5007.84006 5007.84006   -0.00000  190.21189
 10205.00000   51.40000   49.00000   27.00000 5036.74669 5036.74669   -0.00000  301.76445
 10206.00000   52.30000   56.00000   28.00000 5124.43661 5124.43661   -0.00000  350.62943
 10207.00000   52.30000   59.00000   20.00000 5123.93455 5123.93455   -0.00000  368.22084
 10208.00000   51.50000   61.00000   17.00000 5045.06270 5045.06270   -0.00000  368.56482
 10209.00000   51.20000   52.00000   72.00000 5015.18268 5015.18268   -0.00000  347.25139
 10210.00000   53.30000   24.00000  109.00000 5220.37218 5220.37218   -0.00000  293.23379
 10211.00000   57.60000   17.50000  131.00000 5640.97542 5640.97542   -0.00000  205.10903
 10212.00000   60.60000   15.40000  135.00000 5934.19506 5934.19506   -0.00000  101.53175
 10213.00000   60.80000   15.20000  122.00000 5953.19691 5953.19691   -0.00000   18.99537
 10214.00000   59.50000   15.20000  119.00000 5825.33777 5825.33777   -0.00000    1.00858
 10215.00000   59.70000   15.20000  128.00000 5844.34655 5844.34655   -0.00000   69.25814
 10216.00000   61.10000   14.70000  135.00000 5980.81441 5980.81441   -0.00000  208.09812
 10217.00000   61.60000   12.90000  138.00000 6029.16707 6029.16707   -0.00000  375.12542
 10218.00000   61.80000   12.00000  139.00000 6048.15032 6048.15032   -0.00000  515.14585
 10219.00000   62.00000   11.00000  139.00000 6067.12986 6067.12986   -0.00000  581.54564
 10220.00000   62.20000   10.60000  135.00000 6086.10568 6086.10568   -0.00000  552.89618
 10221.00000   62.20000   10.50000  135.00000 6085.51022 6085.51022   -0.00000  437.74335
 10222.00000   62.20000   10.50000  129.00000 6084.91489 6084.91489   -0.00000  266.97477
 10223.00000   60.90000   10.80000  119.00000 5957.15543 5957.15543   -0.00000   79.26747
 10224.00000   60.80000   11.10000  123.00000 5946.79186 5946.79186   -0.00000  -92.46378
 10225.00000   61.50000   11.20000  116.00000 6014.66993 6014.66993   -0.00000 -226.44779
 10226.00000   61.40000   10.70000  118.00000 6004.30276 6004.30276   -0.00000 -313.82023
 10227.00000   61.90000    9.90000  135.00000 6052.60585 6052.60585   -0.00000 -356.30414
 10228.00000   63.20000    9.30000  149.00000 6179.11615 6179.11615   -0.00000 -357.81138
 10229.00000   64.40000    9.00000  153.00000 6295.82559 6295.82559   -0.00000 -326.79443
 10230.00000   62.60000    9.40000  120.00000 6119.25709 6119.25709   -0.00000 -278.05886
 10231.00000   61.40000   10.10000  108.00000 6001.36839 6001.36839   -0.00000 -231.98650
 10232.00000   61.00000   10.20000  105.00000 5961.68882 5961.68882   -0.00000 -208.94088
 10233.00000   61.10000   10.00000  116.00000 5970.87853 5970.87853   -0.00000 -220.10896
 10234.00000   62.80000    8.00000  134.00000 6136.40805 6136.40805   -0.00000 -259.22690
 10235.00000   65.40000    7.10000  138.00000 6389.83879 6389.83879   -0.00000 -300.36688
 10236.00000   66.30000    6.50000  132.00000 6477.13951 6477.13951   -0.00000 -302.83584
 10237.00000   66.20000    5.80000  131.00000 6466.73830 6466.73830   -0.00000 -223.83264
 10238.00000   68.30000    5.00000  135.00000 6671.22485 6671.22485   -0.00000  -48.58157
 10239.00000   69.80000    4.20000  140.00000 6817.07198 6817.07198   -0.00000  211.64617
 10240.00000   70.60000    3.60000  144.00000 6894.53125 6894.53125   -0.00000  517.11910
 10241.00000   72.40000    3.30000  129.00000 7069.62211 7069.62211   -0.00000  807.48380
 10242.00000   74.20000    3.20000  118.00000 7244.67877 7244.67877   -0.00000 1014.77695
 10243.00000   74.30000    3.30000  119.00000 7253.73426 7253.73426   -0.00000 1078.82481
 10244.00000   71.50000    4.00000  114.00000 6979.69543 6979.69543   -0.00000  962.87671
 10245.00000   63.50000    4.90000   87.00000 6198.14544 6198.14544   -0.00000  666.91162
 10246.00000   60.10000    5.40000   80.00000 5865.70369 5865.70369   -0.00000  234.50409
 10247.00000   65.20000    5.80000   99.00000 6362.83790 6362.83790   -0.00000 -251.03410
 10248.00000   68.20000    6.20000   99.00000 6654.95706 6654.95706   -0.00000 -675.51222
 10249.00000   66.40000    6.60000   89.00000 6478.68085 6478.68085   -0.00000 -947.07103
 10250.00000   63.20000    7.60000  100.00000 6165.85366 6165.85366   -0.00000 -1019.37313
 10251.00000   63.40000    8.90000  118.00000 6184.76246 6184.76246   -0.00000 -901.28863
 10252.00000   65.30000   10.10000  124.00000 6369.48888 6369.48888   -0.00000 -649.10661
 10253.00000   65.10000   11.20000  117.00000 6349.36116 6349.36116   -0.00000 -342.62488
 10254.00000   64.10000   12.40000  120.00000 6251.21904 6251.21904   -0.00000  -56.46522
 10255.00000   63.90000   15.10000  123.00000 6231.10678 6231.10678   -0.00000  161.07690
 10256.00000   63.90000   16.60000  124.00000 6230.49922 6230.49922   -0.00000  294.60962
 10257.00000   63.90000   17.50000  123.00000 6229.89178 6229.89178   -0.00000  354.38625
 10258.00000   63.90000   18.00000  120.00000 6229.28446 6229.28446   -0.00000  361.72920
 10259.00000   63.50000   18.00000  120.00000 6189.68710 6189.68710   -0.00000  333.05105
 10260.00000   62.70000   18.00000  125.00000 6111.11111 6111.11111   -0.00000  277.59088
 10261.00000   63.10000   18.00000  130.00000 6149.49810 6149.49810   -0.00000  191.32552
 10262.00000   63.60000   19.00000  126.00000 6197.62230 6197.62230   -0.00000   67.81718
 10263.00000   61.10000   21.00000  113.00000 5953.42492 5953.42492   -0.00000  -93.16075
 10264.00000   58.40000   23.00000  100.00000 5689.78956 5689.78956   -0.00000 -279.11889
 10265.00000   58.10000   27.00000   90.00000 5660.00974 5660.00974   -0.00000 -463.16913
 10266.00000   58.10000   30.00000   78.00000 5659.45841 5659.45841   -0.00000 -608.18964
 10267.00000   57.70000   33.00000   66.00000 5619.94740 5619.94740   -0.00000 -675.82247
 10268.00000   57.10000   35.00000   69.00000 5560.96611 5560.96611   -0.00000 -637.52951
